<!DOCTYPE flight_plan SYSTEM "../flight_plan.dtd">

<flight_plan alt="60" ground_alt="0" lat0="52.168595" lon0="4.412444" max_dist_from_home="5000" name="Nederdrone Valkenburg" security_height="2">
  <header>
    #include "autopilot.h"
    #include "modules/datalink/datalink.h"
</header>
  <waypoints>
    <waypoint name="HOME" x="12.6" y="-48.7"/>
    <waypoint name="CLIMB" x="62.6" y="-80.4"/>
    <waypoint name="STDBY" x="106.0" y="-55.1"/>
    <waypoint name="p1" x="322.0" y="-254.3"/>
    <waypoint name="p2" x="696.0" y="-148.1"/>
    <waypoint name="p3" x="600.4" y="73.4"/>
    <waypoint name="p4" x="238.6" y="-48.5"/>
    <waypoint name="TD" x="-4.1" y="-23.7"/>
    <waypoint name="FOLLOW" x="123.2" y="-87.8"/>
    <waypoint name="S1" lat="52.1669450" lon="4.4174372"/>
    <waypoint name="S2" lat="52.1689871" lon="4.4208804"/>
    <waypoint lat="52.169189" lon="4.410820" name="C1"/>
    <waypoint lat="52.168049" lon="4.406923" name="C2"/>
    <waypoint lat="52.166515" lon="4.408235" name="C3"/>
    <waypoint lat="52.163255" lon="4.407668" name="C4"/>
    <waypoint lat="52.161908" lon="4.410082" name="C5"/>
    <waypoint lat="52.162641" lon="4.416992" name="C6"/>
    <waypoint lat="52.164861" lon="4.427268" name="C7"/>
    <waypoint lat="52.170422" lon="4.427511" name="C8"/>
    <waypoint lat="52.172276" lon="4.424011" name="C9"/>
  </waypoints>
  <sectors>
    <sector color="red" name="Flyzone">
      <corner name="C1"/>
      <corner name="C2"/>
      <corner name="C3"/>
      <corner name="C4"/>
      <corner name="C5"/>
      <corner name="C6"/>
      <corner name="C7"/>
      <corner name="C8"/>
      <corner name="C9"/>
    </sector>
  </sectors>
  <modules>
    <!--module name="follow_me"/-->
    <module name="nav" type="survey_rectangle_rotorcraft">
      <define name="RECTANGLE_SURVEY_DEFAULT_SWEEP" value="100"/>
    </module>
    <module name="approach_moving_target"/>

  </modules>
  <exceptions>
  </exceptions>
  <blocks>
    <block name="Wait GPS">
      <call_once fun="NavKillThrottle()"/>
      <while cond="!GpsFixValid() || !state.ned_initialized_i"/>
    </block>
    <block name="Geo init">
      <while cond="LessThan(NavBlockTime(), 10)"/>
      <call_once fun="NavSetAltitudeReferenceHere()"/>
    </block>
    <block name="Holding point">
      <call_once fun="NavKillThrottle()"/>
      <attitude pitch="0" roll="0" throttle="0" until="FALSE" vmode="throttle"/>
    </block>
    <block name="TakeoffLow" strip_button="Takeoff" strip_icon="takeoff.png">
      <exception cond="GetPosHeight() @GT 18.0" deroute="Takeoff"/>
      <call_once fun="nav_set_heading_current()"/>
      <attitude pitch="-45." roll="0" throttle="0.8" vmode="throttle"/>
    </block>
    <block name="Takeoff" strip_button="Takeoff" strip_icon="takeoff.png">
      <call_once fun="nav_set_heading_current()"/>
      <call_once fun="NavSetWaypointHere(WP_CLIMB)"/>
      <stay climb="nav.climb_vspeed" vmode="climb" wp="CLIMB"/>
    </block>
<block name="Approach STBY">
      <stay alt="WaypointAlt(WP_STDBY)" pre_call="approach_moving_target_enable(WP_STDBY)" wp="STDBY"/>
    </block>

    <block name="landed">
      <attitude pitch="0" roll="0" throttle="0" until="FALSE" vmode="throttle"/>
    </block>
  </blocks>
</flight_plan>
